{
  "type": "FeatureCollection",
  "features": [
    { "type":"Feature","geometry":{"type":"Point","coordinates":[2.3522,48.8566]},"properties":{"id":"ex-001","name":"Ancien dépôt ferroviaire","kind":"friche industrielle","region":"Île-de-France","department":"Paris","commune":"Paris 19e","address":"Rue de l'Ourcq, 75019","score":4.2}},
    { "type":"Feature","geometry":{"type":"Point","coordinates":[2.3,48.88]},"properties":{"id":"ex-002","name":"Usine désaffectée","kind":"friche industrielle","region":"Île-de-France","department":"Hauts-de-Seine","commune":"Clichy","address":"Quai de Clichy","score":3.8}},
    { "type":"Feature","geometry":{"type":"Point","coordinates":[2.47,48.85]},"properties":{"id":"ex-003","name":"Hôpital abandonné","kind":"sanitaire","region":"Île-de-France","department":"Seine-Saint-Denis","commune":"Pantin","address":"Avenue du Général Leclerc","score":4.6}},
    { "type":"Feature","geometry":{"type":"Point","coordinates":[2.4,48.79]},"properties":{"id":"ex-004","name":"Manoir en ruine","kind":"manoir","region":"Île-de-France","department":"Val-de-Marne","commune":"Villejuif","address":"Chemin des Vignes","score":3.4}},
    { "type":"Feature","geometry":{"type":"Point","coordinates":[2.64,48.84]},"properties":{"id":"ex-005","name":"Entrepôt logistique vide","kind":"entrepôt","region":"Île-de-France","department":"Seine-et-Marne","commune":"Noisiel","address":"Allée des Deux Parcs","score":2.9}},

    { "type":"Feature","geometry":{"type":"Point","coordinates":[5.3698,43.2965]},"properties":{"id":"ex-006","name":"Fort côtier (XXe)","kind":"fort","region":"Provence-Alpes-Côte d'Azur","department":"Bouches-du-Rhône","commune":"Marseille","address":"Calanque de Morgiou","score":4.1}},
    { "type":"Feature","geometry":{"type":"Point","coordinates":[7.2619,43.7102]},"properties":{"id":"ex-007","name":"Bunker littoral","kind":"bunker","region":"Provence-Alpes-Côte d'Azur","department":"Alpes-Maritimes","commune":"Nice","address":"Cap de Nice","score":3.7}},
    { "type":"Feature","geometry":{"type":"Point","coordinates":[6.1294,43.1242]},"properties":{"id":"ex-008","name":"Sanatorium abandonné","kind":"sanitaire","region":"Provence-Alpes-Côte d'Azur","department":"Var","commune":"Toulon","address":"Mont Faron","score":4.5}},

    { "type":"Feature","geometry":{"type":"Point","coordinates":[-1.5536,47.2184]},"properties":{"id":"ex-009","name":"Chantier naval désaffecté","kind":"friche portuaire","region":"Pays de la Loire","department":"Loire-Atlantique","commune":"Nantes","address":"Île de Nantes","score":4.0}},
    { "type":"Feature","geometry":{"type":"Point","coordinates":[-0.5792,44.8378]},"properties":{"id":"ex-010","name":"Caserne abandonnée","kind":"militaire","region":"Nouvelle-Aquitaine","department":"Gironde","commune":"Bordeaux","address":"Rue de la Caserne","score":3.6}},
    { "type":"Feature","geometry":{"type":"Point","coordinates":[-1.6778,48.1173]},"properties":{"id":"ex-011","name":"Usine agro en friche","kind":"friche industrielle","region":"Bretagne","department":"Ille-et-Vilaine","commune":"Rennes","address":"Rue de Lorient","score":3.2}},
    { "type":"Feature","geometry":{"type":"Point","coordinates":[-4.4861,48.3904]},"properties":{"id":"ex-012","name":"Batterie côtière","kind":"militaire","region":"Bretagne","department":"Finistère","commune":"Brest","address":"Plougonvelin","score":4.3}},

    { "type":"Feature","geometry":{"type":"Point","coordinates":[3.0586,50.6292]},"properties":{"id":"ex-013","name":"Filature abandonnée","kind":"friche industrielle","region":"Hauts-de-France","department":"Nord","commune":"Lille","address":"Rue des Textiles","score":3.9}},
    { "type":"Feature","geometry":{"type":"Point","coordinates":[1.0993,49.4431]},"properties":{"id":"ex-014","name":"Hôpital pavillonnaire","kind":"sanitaire","region":"Normandie","department":"Seine-Maritime","commune":"Rouen","address":"Plateau Est","score":4.2}},
    { "type":"Feature","geometry":{"type":"Point","coordinates":[0.346,49.4944]},"properties":{"id":"ex-015","name":"Raffinerie désaffectée","kind":"friche industrielle","region":"Normandie","department":"Seine-Maritime","commune":"Le Havre","address":"Zone portuaire","score":3.5}},

    { "type":"Feature","geometry":{"type":"Point","coordinates":[4.8357,45.7640]},"properties":{"id":"ex-016","name":"Halle industrielle","kind":"friche industrielle","region":"Auvergne-Rhône-Alpes","department":"Rhône","commune":"Lyon","address":"La Saulaie","score":3.7}},
    { "type":"Feature","geometry":{"type":"Point","coordinates":[6.0182,45.8992]},"properties":{"id":"ex-017","name":"Fort de montagne","kind":"fort","region":"Auvergne-Rhône-Alpes","department":"Haute-Savoie","commune":"Annecy","address":"Semnoz","score":4.4}},
    { "type":"Feature","geometry":{"type":"Point","coordinates":[5.7245,45.1885]},"properties":{"id":"ex-018","name":"Bunker de commandement","kind":"bunker","region":"Auvergne-Rhône-Alpes","department":"Isère","commune":"Grenoble","address":"Fort de Comboire","score":4.0}},

    { "type":"Feature","geometry":{"type":"Point","coordinates":[1.4437,43.6047]},"properties":{"id":"ex-019","name":"Dépôt aéronautique","kind":"friche industrielle","region":"Occitanie","department":"Haute-Garonne","commune":"Toulouse","address":"Montaudran","score":3.6}},
    { "type":"Feature","geometry":{"type":"Point","coordinates":[3.8767,43.6119]},"properties":{"id":"ex-020","name":"Asile désaffecté","kind":"sanitaire","region":"Occitanie","department":"Hérault","commune":"Montpellier","address":"Les Arceaux","score":4.1}},

    { "type":"Feature","geometry":{"type":"Point","coordinates":[1.2611,45.8336]},"properties":{"id":"ex-021","name":"Papeterie en friche","kind":"friche industrielle","region":"Nouvelle-Aquitaine","department":"Haute-Vienne","commune":"Limoges","address":"Rue du Moulin","score":3.3}},
    { "type":"Feature","geometry":{"type":"Point","coordinates":[4.3610,43.8340]},"properties":{"id":"ex-022","name":"Batterie littorale","kind":"militaire","region":"Occitanie","department":"Gard","commune":"Aigues-Mortes","address":"Graussettes","score":3.8}},

    { "type":"Feature","geometry":{"type":"Point","coordinates":[7.7486,48.5839]},"properties":{"id":"ex-023","name":"Dépôt SNCF","kind":"friche ferroviaire","region":"Grand Est","department":"Bas-Rhin","commune":"Strasbourg","address":"Port du Rhin","score":3.9}},
    { "type":"Feature","geometry":{"type":"Point","coordinates":[6.1736,49.1193]},"properties":{"id":"ex-024","name":"Ancienne usine sidérurgique","kind":"friche industrielle","region":"Grand Est","department":"Moselle","commune":"Metz","address":"Zone industrielle","score":4.0}},
    { "type":"Feature","geometry":{"type":"Point","coordinates":[3.8760,47.7982]},"properties":{"id":"ex-025","name":"Fort couvert","kind":"fort","region":"Bourgogne-Franche-Comté","department":"Yonne","commune":"Auxerre","address":"Coteau nord","score":3.7}}
  ]
}
